]0;Firebase CLI{"clues":{"-LsdIR-ZSEe7y102XLpH":{"clueListId":"S","clueNum":"1","completed":true,"inCrawl":true,"latitude":42.35877719999999,"longitude":-71.06381010000001,"title":"snapchat challenge (due by 9)"},"-LsdNKdJnOPqwmrfCcLO":{"clueListId":"A","clueNum":"49","completed":false,"inCrawl":false,"latitude":42.3681321,"longitude":-71.07636439999999,"title":"Mall with Taco Bell"},"-LsdNaWF_-GCUD0Jb-pI":{"clueListId":"A","clueNum":"1","completed":true,"inCrawl":false,"latitude":42.3408679,"longitude":-71.08818080000003,"title":"Conor Larkin's"},"-LsdNfhlU4GPKs5Fzvkr":{"clueListId":"A","clueNum":"30","completed":false,"inCrawl":false,"latitude":42.3420867,"longitude":-71.07036740000001,"title":"South End Buttery"},"-LsdNhXj6qJlPLYiuepX":{"clueListId":"A","clueNum":"24","completed":true,"inCrawl":false,"latitude":42.3264873,"longitude":-71.06871920000003,"title":"Clifford Playground"},"-LsdNiaE9045XJfZvIEM":{"clueListId":"A","clueNum":"14","completed":true,"inCrawl":false,"latitude":42.34740159999999,"longitude":-71.09440940000002,"title":"Lucky Strike"},"-LsdNj0yBjKd64AcpXwH":{"clueListId":"A","clueNum":"2","completed":true,"inCrawl":false,"latitude":42.3417467,"longitude":-71.08717969999998,"title":"Two Saint's Tavern"},"-LsdNmssSmuv-ThoXwCR":{"clueListId":"A","clueNum":"3","completed":true,"inCrawl":false,"latitude":42.3410143,"longitude":-71.08767740000002,"title":"Boston Shwarma"},"-LsdNo2N-iuXfXxofhgl":{"clueListId":"A","clueNum":"25","completed":true,"inCrawl":false,"latitude":42.3495325,"longitude":-71.09961679999998,"title":"Questrom School of Business"},"-LsdNpTDFEOqpHQj98Em":{"clueListId":"A","clueNum":"4","completed":true,"inCrawl":false,"latitude":42.34511949999999,"longitude":-71.08629229999997,"title":"Mapparium"},"-LsdNzVhGdisruIsX42f":{"clueListId":"A","clueNum":"5","completed":true,"inCrawl":false,"latitude":42.339381,"longitude":-71.09404799999999,"title":"MFA Back Entrance"},"-LsdO--14R3Z8wGg7HUT":{"clueListId":"A","clueNum":"82","completed":true,"inCrawl":false,"latitude":42.36633369999999,"longitude":-71.0524987,"title":"All Saints Way"},"-LsdOK93-R-y6KYKPqOf":{"clueListId":"A","clueNum":"40","completed":true,"inCrawl":false,"latitude":42.35727540000001,"longitude":-71.07019220000001,"title":"The Paramount"},"-LsdOeKANehws4ESpWvw":{"clueListId":"A","clueNum":"13","completed":true,"inCrawl":false,"latitude":42.3441074,"longitude":-71.100299,"title":"Tiger Mama"},"-LsdOgM7ibIePu8NUrWC":{"clueListId":"A","clueNum":"32","completed":true,"inCrawl":false,"latitude":42.3548251,"longitude":-71.0714183,"title":"Ether Monument"},"-LsdOhARrwnS2qo-rl5K":{"clueListId":"A","clueNum":"42","completed":true,"inCrawl":false,"latitude":42.35592339999999,"longitude":-71.07127839999998,"title":"Cheers"},"-LsdOpiQa4iL247SNdYu":{"clueListId":"A","clueNum":"51","completed":true,"inCrawl":false,"latitude":42.3456518,"longitude":-71.12715690000005,"title":"Kupel's Bakery"},"-LsdOzgusYtZWDZCu-sI":{"clueListId":"A","clueNum":"16","completed":true,"inCrawl":false,"latitude":42.3466764,"longitude":-71.09721780000001,"title":"Fenway Park"},"-LsdP2Cxrup19elk1hH2":{"clueListId":"A","clueNum":"93","completed":false,"inCrawl":false,"latitude":42.3643818,"longitude":-71.03348,"title":"Downeast Cider House"},"-LsdPCS3L0mfWAohdki4":{"clueListId":"A","clueNum":"43","completed":true,"inCrawl":false,"latitude":42.3537331,"longitude":-71.05770210000003,"title":"Sebastian's Cafe"},"-LsdPFm001GloBFw_Fck":{"clueListId":"V","clueNum":"3","completed":true,"inCrawl":true,"latitude":42.3495623,"longitude":-71.07028880000001,"title":"The Castle At Park Plaza"},"-LsdPY_3mJGA6z0FdQaR":{"clueListId":"A","clueNum":"95","completed":false,"inCrawl":false,"latitude":42.3809947,"longitude":-71.0727119,"title":"Cambridge College"},"-LsdPppgUmk3lsXsqfWp":{"clueListId":"V","clueNum":"5","completed":true,"inCrawl":true,"latitude":42.31063169999999,"longitude":-71.1228026,"title":"Arborway Castle"},"-LsdPtFxjuTCTDWTPh4s":{"clueListId":"A","clueNum":"6","completed":true,"inCrawl":false,"latitude":42.3418218,"longitude":-71.08056859999999,"title":"Five Horses Tavern"},"-LsdPv2VOcPJbyD5tLjO":{"clueListId":"A","clueNum":"18","completed":true,"inCrawl":false,"latitude":42.34835739999999,"longitude":-71.08669050000003,"title":"Trident Cafe"},"-LsdQ62588IokYbacE9S":{"clueListId":"A","clueNum":"44","completed":true,"inCrawl":false,"latitude":42.36035700000001,"longitude":-71.087264,"title":"MIT Media Lab"},"-LsdQ6vJSVT8kiSkMbby":{"clueListId":"V","clueNum":"4","completed":true,"inCrawl":true,"latitude":42.3673724,"longitude":-71.25564639999999,"title":"Usen Castle"},"-LsdQIDo6-U2mI9ic7Eh":{"clueListId":"A","clueNum":"98","completed":false,"inCrawl":false,"latitude":42.3191986,"longitude":-71.17542800000001,"title":"Wegmans"},"-LsdQOiCPQizLhDoMUMK":{"clueListId":"A","clueNum":"69","completed":true,"inCrawl":false,"latitude":42.35003630000001,"longitude":-71.1305901,"title":"Music Venue Great Scott"},"-LsdQYf0QLT9w2ZsnCXz":{"clueListId":"V","clueNum":"1","completed":true,"inCrawl":true,"latitude":42.3370513,"longitude":-71.0116319,"title":"Fort Independence (castle island)"},"-LsdQrxPZGcibtYcf2a1":{"clueListId":"A","clueNum":"10","completed":true,"inCrawl":false,"latitude":42.33682499999999,"longitude":-71.0845736,"title":"Good Eats Pizza & Subs"},"-LsdQugUv4PS91j3jn6r":{"clueListId":"A","clueNum":"19","completed":false,"inCrawl":false,"latitude":42.3365241,"longitude":-71.07692980000002,"title":"Hotel Alexandra"},"-LsdRIdmdpkZk_6iDf8Z":{"clueListId":"A","clueNum":"11","completed":true,"inCrawl":false,"latitude":42.33672749999999,"longitude":-71.08544319999999,"title":"Sunrise Chinese Food"},"-LsdRKf3WTm8CT1vwefL":{"clueListId":"V","clueNum":"2","completed":true,"inCrawl":true,"latitude":42.35088349999999,"longitude":-71.1036537,"title":"BU Castle"},"-LsdRzAwuwfznmjKkWTZ":{"clueListId":"A","clueNum":"15","completed":true,"inCrawl":false,"latitude":42.3454596,"longitude":-71.096992,"title":"The Verb Hotel Fenway"},"-LsdSB8qrTVjRlI6kmSs":{"clueListId":"A","clueNum":"81","completed":true,"inCrawl":false,"latitude":42.3596118,"longitude":-71.13846089999998,"title":"Jump On In"},"-LsdSMMOQRmyST_DjdYR":{"clueListId":"A","clueNum":"76","completed":true,"inCrawl":false,"latitude":42.3530893,"longitude":-71.1309331,"title":"Bonchon Chicken"},"-LsdSWPEpMJb0cm0SpKj":{"clueListId":"A","clueNum":"84","completed":true,"inCrawl":false,"latitude":42.3807302,"longitude":-71.10159679999998,"title":"Market Basket Somerville"},"-LsdSXezJXnHnNUp3A88":{"clueListId":"A","clueNum":"7","completed":true,"inCrawl":false,"latitude":42.34566759999999,"longitude":-71.0867432,"title":"Dorothy's Costume Boutique"},"-LsdSnuGkSnqFx8pksCk":{"clueListId":"A","clueNum":"105","completed":true,"inCrawl":false,"latitude":42.3495377,"longitude":-71.1054077,"title":"Insomnia"},"-LsdSpKQCIBDFfqXHlZz":{"clueListId":"A","clueNum":"106","completed":false,"inCrawl":false,"latitude":42.25997669999999,"longitude":-71.16819900000002,"title":"Chick-fil-a"},"-LsdSsmuhcW_Wo22rcgt":{"clueListId":"A","clueNum":"12","completed":true,"inCrawl":false,"latitude":42.3449245,"longitude":-71.09323669999998,"title":"Fenway Victory Gardens"},"-LsdSyFFUdqptaSW8R2y":{"clueListId":"A","clueNum":"56","completed":true,"inCrawl":false,"latitude":42.352439,"longitude":-71.12882630000001,"title":"OliToki (Brighton Ave)"},"-LsdSyb0BLwW-n0PVTRQ":{"clueListId":"A","clueNum":"45","completed":true,"inCrawl":false,"latitude":42.3599149,"longitude":-71.06303200000002,"title":"Grotto Restaurant"},"-LsdTBhUwngyGHWKEUKA":{"clueListId":"A","clueNum":"75","completed":true,"inCrawl":false,"latitude":42.3615867,"longitude":-71.062498,"title":"Cardinal Cushing Memorial Park"},"-LsdTEycpw7f6Cl6q_iJ":{"clueListId":"A","clueNum":"107","completed":false,"inCrawl":false,"latitude":42.3770065,"longitude":-70.97710740000002,"title":"Winthrop Golf Club"},"-LsdTLtQqbu2FV-3suce":{"clueListId":"A","clueNum":"8","completed":true,"inCrawl":false,"latitude":42.3454991,"longitude":-71.0864707,"title":"Bodega Convenience/Shoe Store"},"-LsdTh965UuqNW5FblzD":{"clueListId":"A","clueNum":"28","completed":false,"inCrawl":false,"latitude":42.3420995,"longitude":-71.0658937,"title":"Cinquecento"},"-LsdUCR1JXrVoEGZ9j9A":{"clueListId":"A","clueNum":"60","completed":true,"inCrawl":false,"latitude":42.366664,"longitude":-71.10540200000003,"title":"LIve Alive (Cambridge Location)"},"-LsdUHi0rzaYJxb8XB35":{"clueListId":"A","clueNum":"91","completed":true,"inCrawl":false,"latitude":42.39126359999999,"longitude":-71.12347569999997,"title":"Wasabi at Porter Square"},"-LsdUbJNTBOuzGbtm5Xp":{"clueListId":"A","clueNum":"21","completed":true,"inCrawl":false,"latitude":42.3312056,"longitude":-71.1054178,"title":"Timothy Hoxie House"},"-LsdUcJxawvoCVcQr6OO":{"clueListId":"A","clueNum":"59","completed":true,"inCrawl":false,"latitude":42.3648225,"longitude":-71.05569639999999,"title":"Ivyees \"Everything Honey\""},"-LsdUj1GMfsDpwoyG8Z9":{"clueListId":"A","clueNum":"89","completed":false,"inCrawl":false,"latitude":42.34335559999999,"longitude":-71.1426849,"title":"Tasca"},"-LsdV8OfgiRyrm0jHrsY":{"clueListId":"A","clueNum":"85","completed":false,"inCrawl":false,"latitude":42.3868486,"longitude":-71.09092190000001,"title":"Mudville Sign MA"},"-LsdVF_lQSacofiYpohu":{"clueListId":"A","clueNum":"39","completed":true,"inCrawl":false,"latitude":42.35462039999999,"longitude":-71.070785,"title":"Make Way for Ducklings"},"-LsdVHiEgjnu_oUrHvZ5":{"clueListId":"A","clueNum":"71","completed":true,"inCrawl":false,"latitude":42.3528824,"longitude":-71.04301099999998,"title":"Institutes of Contemporary Art"},"-LsdVO4DENlUjE4TWvse":{"clueListId":"A","clueNum":"72","completed":true,"inCrawl":false,"latitude":42.3602503,"longitude":-71.05474249999997,"title":"Faneuil Hall"},"-LsdVTprg7sjSSxn-oTA":{"clueListId":"A","clueNum":"74","completed":true,"inCrawl":false,"latitude":42.3518682,"longitude":-71.04999250000003,"title":"Boston Children's Museum"},"-LsdVZKRKmvTTQ0d1hJs":{"clueListId":"A","clueNum":"80","completed":true,"inCrawl":false,"latitude":42.33802039999999,"longitude":-71.03566380000001,"title":"Murphy's Law"},"-LsdVdVOqADd0mGqn2IX":{"clueListId":"A","clueNum":"65","completed":true,"inCrawl":false,"latitude":42.3509935,"longitude":-71.04478030000001,"title":"Taiyaki NYC"},"-LsdVkB-FQ6vWgcsQoSM":{"clueListId":"A","clueNum":"33","completed":false,"inCrawl":false,"latitude":42.39980490000001,"longitude":-71.1179138,"title":"Museum of Modern Renaissance"},"-LsdVkGX7kZZZDyelwg-":{"clueListId":"A","clueNum":"66","completed":true,"inCrawl":false,"latitude":42.3511359,"longitude":-71.1311508,"title":"Buffalo Exchange"},"-LsdVreHBBqguSmb2aFN":{"clueListId":"A","clueNum":"55","completed":true,"inCrawl":false,"latitude":42.372644,"longitude":-71.09390489999998,"title":"Muqueca (Stew)"},"-LsdW36ZonrIToFRm_I_":{"clueListId":"A","clueNum":"67","completed":true,"inCrawl":false,"latitude":42.3657113,"longitude":-71.10354459999996,"title":"Central Square Florist"},"-LsdWhAAixmxTbAgbw8W":{"clueListId":"A","clueNum":"68","completed":false,"inCrawl":false,"latitude":42.3593017,"longitude":-71.04912680000001,"title":"Boston Aquarium"},"-LsdXWsSNAijpqfMKy9V":{"clueListId":"A","clueNum":"86","completed":true,"inCrawl":false,"latitude":42.3784626,"longitude":-71.11555759999999,"title":"The Harvard Museum of Natural History"},"-LsdXb6QFZva9OV3HIxZ":{"clueListId":"A","clueNum":"78","completed":false,"inCrawl":false,"latitude":42.3571772,"longitude":-71.05799259999998,"title":"Ogawa Cafe"},"-LsdXfp8lIwr9ap9A36H":{"clueListId":"A","clueNum":"104","completed":false,"inCrawl":false,"latitude":42.4062039,"longitude":-71.11887660000002,"title":"Tisch Library"},"-LsdXmUQk-YT2bzWRexk":{"clueListId":"A","clueNum":"70","completed":true,"inCrawl":false,"latitude":42.3734606,"longitude":-71.12050199999999,"title":"Felipe's Taqueria"},"-LsdYKZ7HD7VZELueFwc":{"clueListId":"A","clueNum":"79","completed":true,"inCrawl":false,"latitude":42.3437778,"longitude":-71.03106559999998,"title":"Boston Cruise Port"},"-LsdYVFpxiM6DN4vSe31":{"clueListId":"A","clueNum":"87","completed":false,"inCrawl":false,"latitude":42.31049580000001,"longitude":-71.1348046,"title":"Larz Anderson Auto Museum"},"-LsdZ4G2nrytoT0r1oGQ":{"clueListId":"A","clueNum":"111","completed":true,"inCrawl":false,"latitude":42.3480147,"longitude":-71.08556490000001,"title":"Boston Fire Dept. Engine 33 Ladder 15"},"-LsdZ5ciLckEaFk_g75D":{"clueListId":"A","clueNum":"90","completed":true,"inCrawl":false,"latitude":42.3819819,"longitude":-71.10262239999997,"title":"Greentown Labs"},"-LsdZJnExfQVvpU0QKDz":{"clueListId":"A","clueNum":"38","completed":true,"inCrawl":false,"latitude":42.3499921,"longitude":-71.06555630000003,"title":"Royale"},"-LsdZZ6BZ7dZFqANPiyg":{"clueListId":"A","clueNum":"17","completed":true,"inCrawl":false,"latitude":42.33660339999999,"longitude":-71.10165410000002,"title":"MCPHS"},"-Lsd_JVe2ui3J-rzxHaK":{"clueListId":"A","clueNum":"20","completed":true,"inCrawl":false,"latitude":42.3473143,"longitude":-71.09447260000002,"title":"Loretta's Bar"},"-Lsd_UNJ0Nx3f3dNSZOX":{"clueListId":"A","clueNum":"23","completed":true,"inCrawl":false,"latitude":42.32823519999999,"longitude":-71.09847339999999,"title":"Diablo Glass School"},"-Lsda5_wx13ScK0sSNbA":{"clueListId":"A","clueNum":"96","completed":true,"inCrawl":false,"latitude":42.3627704,"longitude":-71.1649036,"title":"The Arsenal on the Charles"},"-LsdabIrECACCdBPE-1h":{"clueListId":"A","clueNum":"26","completed":false,"inCrawl":false,"latitude":42.34295650000001,"longitude":-71.0675046,"title":"Peter's Park"},"-LsdbXoJ_67B9y8a6DAZ":{"clueListId":"A","clueNum":"73","completed":true,"inCrawl":false,"latitude":42.3665026,"longitude":-71.05117999999999,"title":"Cafe Amalfi"},"-LsdbyL8QfwgPGoPVtpK":{"clueListId":"A","clueNum":"77","completed":true,"inCrawl":false,"latitude":42.3720348,"longitude":-71.12151619999997,"title":"IHOP"},"-LsdcYqMCbo54DUHpoVj":{"clueListId":"A","clueNum":"110","completed":false,"inCrawl":false,"latitude":42.024172,"longitude":-71.2159044,"title":"Cafe on the Common"},"-LsdcqUiAQEl2Y2mHoxZ":{"clueListId":"S","clueNum":"3","completed":true,"inCrawl":true,"latitude":42.3572539,"longitude":-71.14819069999999,"title":"WGBH (SNAPCHAT FILTER)"},"-LsdgwPTI4dbQJBernPn":{"clueListId":"A","clueNum":"101","completed":false,"inCrawl":false,"latitude":42.278809,"longitude":-71.116017,"title":"La Lechonera Restaurant"},"-LsdlzpxRHGHbHVTqbUM":{"clueListId":"A","clueNum":"27","completed":true,"inCrawl":false,"latitude":42.3572636,"longitude":-71.05344079999998,"title":"Hilton Downtown Boston"},"-LsdmhPS0EQ959sbJdO2":{"clueListId":"A","clueNum":"9","completed":true,"inCrawl":false,"latitude":42.3409061,"longitude":-71.08808090000002,"title":"Wings over Boston"},"-Lse1Hi_KDiRuKQENyyI":{"clueListId":"A","clueNum":"108","completed":false,"inCrawl":false,"latitude":42.3434029,"longitude":-71.06360710000001,"title":"More than Words Book Warehouse"},"-Lse2rn0dtCi_FBDnIGP":{"clueListId":"S","clueNum":"5","completed":true,"inCrawl":true,"latitude":42.3591346,"longitude":-71.0497542,"title":"Snapchat: Aquarium"},"-Lse39xfVE0LgbsjPPen":{"clueListId":"B","clueNum":"71","completed":true,"inCrawl":false,"latitude":42.3484779,"longitude":-71.08534320000001,"title":"Santouka"},"-Lse3IRDo601SNoyCgMQ":{"clueListId":"B","clueNum":"22","completed":true,"inCrawl":false,"latitude":42.35219010000001,"longitude":-71.11772969999998,"title":"Agganis Arena"},"-Lse4VEA22cMspVsyfaN":{"clueListId":"B","clueNum":"62","completed":false,"inCrawl":false,"latitude":42.3768848,"longitude":-71.03666220000002,"title":"Barnes school apartments"},"-Lse4zLchf_86nSUh--9":{"clueListId":"B","clueNum":"46","completed":true,"inCrawl":false,"latitude":42.3496398,"longitude":-71.08155599999998,"title":"Shake Shack (any location)"},"-Lse5K5gbKRQ-jA2Rrs9":{"clueListId":"B","clueNum":"29","completed":true,"inCrawl":false,"latitude":42.3740898,"longitude":-71.11435820000003,"title":"Forbes Pigment Collection"},"-Lse5mYwOAFMkhcb2HZK":{"clueListId":"B","clueNum":"55","completed":false,"inCrawl":false,"latitude":42.2942071,"longitude":-71.04694239999998,"title":"Phillips Candy House"},"-Lse5qmZJ_sdlyiawgZS":{"clueListId":"B","clueNum":"74","completed":true,"inCrawl":false,"latitude":42.3493407,"longitude":-71.07512609999998,"title":"John Hancock Tower"},"-Lse69BieZnmMuyb4vYe":{"clueListId":"B","clueNum":"75","completed":true,"inCrawl":false,"latitude":42.3319752,"longitude":-71.09304600000002,"title":"Reggie Lewis Track and Athletic Center"},"-Lse6RIupO_gCwKbtXau":{"clueListId":"B","clueNum":"76","completed":true,"inCrawl":false,"latitude":42.3499893,"longitude":-71.07549610000001,"title":"Trinity Church"},"-Lse6upXcoAGIPZ5xGy_":{"clueListId":"W","clueNum":"1","completed":true,"inCrawl":true,"latitude":42.395625,"longitude":-71.1419017,"title":"Alewife (Red Line)"},"-Lse72f1WgGs_I8RhFBP":{"clueListId":"W","clueNum":"2","completed":true,"inCrawl":true,"latitude":42.3969532,"longitude":-71.1230994,"title":"Davis (Red Line)"},"-Lse7FhVOENPEDc4FKv9":{"clueListId":"W","clueNum":"3","completed":true,"inCrawl":true,"latitude":42.3884,"longitude":-71.119149,"title":"Porter (Red Line)"},"-Lse7U4_0OsitaeAgw7U":{"clueListId":"W","clueNum":"4","completed":true,"inCrawl":true,"latitude":42.3735695,"longitude":-71.11896619999999,"title":"Harvard Station (Red Line)"},"-Lse7fKNH5PDqlK7T2Om":{"clueListId":"B","clueNum":"25","completed":true,"inCrawl":false,"latitude":42.3595038,"longitude":-71.06616580000002,"title":"Charles Sumner Birthplace"},"-Lse7gLZcrpKL_4ZRcXL":{"clueListId":"W","clueNum":"5","completed":true,"inCrawl":true,"latitude":42.3652745,"longitude":-71.1035867,"title":"Central (Red Line)"},"-Lse7jREPDUc4RfzIP5s":{"clueListId":"B","clueNum":"79","completed":true,"inCrawl":false,"latitude":42.3492582,"longitude":-71.09624869999999,"title":"CITGO sign"},"-Lse7p_ePuoUhRjz4npK":{"clueListId":"W","clueNum":"6","completed":true,"inCrawl":true,"latitude":42.3624823,"longitude":-71.0855752,"title":"Kendall/MIT"},"-Lse7zca3mdkO3Ha79x0":{"clueListId":"W","clueNum":"7","completed":true,"inCrawl":true,"latitude":42.36122149999999,"longitude":-71.07053689999998,"title":"Charles/MGH"},"-Lse83Pgde3ssPAKAsnI":{"clueListId":"B","clueNum":"81","completed":true,"inCrawl":false,"latitude":42.35060649999999,"longitude":-71.07250390000002,"title":"Fire + Ice"},"-Lse88PeuF_UC9Ev-SeT":{"clueListId":"W","clueNum":"8","completed":true,"inCrawl":true,"latitude":42.3570637,"longitude":-71.06257679999999,"title":"Park St (Red Line)"},"-Lse8JMn15iX3pe_Ons5":{"clueListId":"B","clueNum":"84","completed":true,"inCrawl":false,"latitude":42.34641000000001,"longitude":-71.10704799999996,"title":"Gyu-Kaku"},"-Lse8PLedMdWYuNs3hak":{"clueListId":"W","clueNum":"9","completed":true,"inCrawl":true,"latitude":42.3554793,"longitude":-71.06064090000001,"title":"downtown crossing (Red Line)"},"-Lse8X5NoyNK82p1iHYT":{"clueListId":"W","clueNum":"10","completed":true,"inCrawl":true,"latitude":42.3519217,"longitude":-71.05507030000001,"title":"South Station (Red Line)"},"-Lse8dEGsunbIa2VsKvE":{"clueListId":"W","clueNum":"11","completed":true,"inCrawl":true,"latitude":42.3425726,"longitude":-71.05694499999998,"title":"Broadway (Red Line)"},"-Lse8jD0qm27P1T5okgm":{"clueListId":"W","clueNum":"12","completed":true,"inCrawl":true,"latitude":42.33008709999999,"longitude":-71.05808130000003,"title":"Andrew (Red Line)"},"-Lse8pVjRW7HOO85y0p3":{"clueListId":"W","clueNum":"13","completed":true,"inCrawl":true,"latitude":42.3206046,"longitude":-71.05236909999996,"title":"jfk/umass (Red Line)"},"-Lse8uB2s2XRqgVjpU8J":{"clueListId":"B","clueNum":"24","completed":true,"inCrawl":false,"latitude":42.34896380000001,"longitude":-71.06421549999999,"title":"DoubleTree Hotel"},"-Lse8zGhDQEVjbDkquK_":{"clueListId":"W","clueNum":"14","completed":true,"inCrawl":true,"latitude":42.2741688,"longitude":-71.02886810000001,"title":"north quincy (Red Line)"},"-Lse99ihGCRFay-cESU5":{"clueListId":"W","clueNum":"15","completed":true,"inCrawl":true,"latitude":42.2668041,"longitude":-71.01964149999998,"title":"wollastons (Red Line)"},"-Lse9Hxeb_M_gNl9tj9R":{"clueListId":"W","clueNum":"16","completed":true,"inCrawl":true,"latitude":42.2519916,"longitude":-71.0055016,"title":"Quincy Center (Red Line)"},"-Lse9QuW0OysgrKMvxjG":{"clueListId":"W","clueNum":"17","completed":true,"inCrawl":true,"latitude":42.2326708,"longitude":-71.0081298,"title":"quincy adams (Red Line)"},"-Lse9XduIjZuGlwUEjRp":{"clueListId":"W","clueNum":"18","completed":true,"inCrawl":true,"latitude":42.20770690000001,"longitude":-71.0005008,"title":"braintree station (Red Line)"},"-Lse9fwQypcQX3ccfEh2":{"clueListId":"W","clueNum":"19","completed":true,"inCrawl":true,"latitude":42.3112599,"longitude":-71.05331869999998,"title":"savin hill station (Red Line)"},"-Lse9pJGRxOs-ZF10MHL":{"clueListId":"W","clueNum":"20","completed":true,"inCrawl":true,"latitude":42.29994059999999,"longitude":-71.0618518,"title":"fields corner (red line)"},"-Lse9w3AE_uxeRDWpP18":{"clueListId":"W","clueNum":"21","completed":true,"inCrawl":true,"latitude":42.2931284,"longitude":-71.06580329999997,"title":"shawmut (red line)"},"-Lse9y1SxyJORE5AnrZJ":{"clueListId":"B","clueNum":"59","completed":false,"inCrawl":false,"latitude":42.3627822,"longitude":-71.08353750000003,"title":"Encore Boston Harbor"},"-LseA2Zw081PH_Bydnp6":{"clueListId":"W","clueNum":"22","completed":true,"inCrawl":true,"latitude":42.2845163,"longitude":-71.06378769999998,"title":"ashmont (red line)"},"-LseAFzAg4mjp-4SSwdv":{"clueListId":"B","clueNum":"11","completed":true,"inCrawl":false,"latitude":42.3657372,"longitude":-71.1047299,"title":"Lucky's Tattoo and Piercing"},"-LseAI-alTI38cBYDHYj":{"clueListId":"W","clueNum":"23","completed":true,"inCrawl":true,"latitude":42.2677842,"longitude":-71.0918292,"title":"Mattapan (Red line)"},"-LseAXRo9vOfxyLQBP1M":{"clueListId":"B","clueNum":"34","completed":false,"inCrawl":false,"latitude":42.3294412,"longitude":-71.14262659999997,"title":"Fisher Hill Reservoir Park"},"-LseAacnjhRTtls3gIWK":{"clueListId":"B","clueNum":"12","completed":true,"inCrawl":false,"latitude":42.3413958,"longitude":-71.1251681,"title":"Knight Moves Cafe"},"-LseAmU1Y9vzWRC5mKc0":{"clueListId":"B","clueNum":"78","completed":true,"inCrawl":false,"latitude":42.35011610000001,"longitude":-71.0830416,"title":"Boston Women's Memorial"},"-LseAmUgw4y9sl8o6OoA":{"clueListId":"B","clueNum":"20","completed":false,"inCrawl":false,"latitude":42.3513782,"longitude":-71.05688270000002,"title":"O Ya Sushi"},"-LseAuRCGEnEraBtJBQY":{"clueListId":"B","clueNum":"36","completed":true,"inCrawl":false,"latitude":42.36382150000001,"longitude":-71.0556454,"title":"Antico Forno"},"-LseBvfTJOnV2lG0jZTn":{"clueListId":"B","clueNum":"39","completed":true,"inCrawl":false,"latitude":42.35295999999999,"longitude":-71.13306399999999,"title":"Coreanos Allston"},"-LseCS5JME8cgmAiaKL6":{"clueListId":"B","clueNum":"38","completed":true,"inCrawl":false,"latitude":42.33580550000001,"longitude":-71.04533500000002,"title":"Stats Bar & Grill"},"-LseDRpsy3xof67SkApn":{"clueListId":"B","clueNum":"69","completed":true,"inCrawl":false,"latitude":42.348132,"longitude":-71.08708050000001,"title":"Newbury Comics"},"-LseFXSCk_znXadSnmfe":{"clueListId":"B","clueNum":"19","completed":true,"inCrawl":false,"latitude":42.3583773,"longitude":-71.07043699999997,"title":"Sevens Ale House"},"-LseFdKm-0PZLRLVJmLP":{"clueListId":"B","clueNum":"65","completed":false,"inCrawl":false,"latitude":42.2558178,"longitude":-71.12494609999999,"title":"Red Moon"},"-LseG-KFzL8mLxa5ArZC":{"clueListId":"B","clueNum":"40","completed":false,"inCrawl":false,"latitude":42.44809069999999,"longitude":-71.22965729999999,"title":"Cary Memorial Library"},"-LseG7RuvDSoI6f37Q12":{"clueListId":"B","clueNum":"18","completed":false,"inCrawl":false,"latitude":42.359349,"longitude":-71.05922799999996,"title":"The Golden Teapot (get this in the pic)"},"-LseGLLc_7VYSKBYlNaR":{"clueListId":"B","clueNum":"67","completed":false,"inCrawl":false,"latitude":42.4074843,"longitude":-71.11902320000002,"title":"Elephant Statue on Tufts Campus"},"-LseGROcRH6ZZ3-xpDjO":{"clueListId":"B","clueNum":"17","completed":false,"inCrawl":false,"latitude":42.357601,"longitude":-71.06068900000002,"title":"Tremont Temple Baptist Church"},"-LseGwzbfqafVy9OzeY1":{"clueListId":"B","clueNum":"2","completed":false,"inCrawl":false,"latitude":42.33317599999999,"longitude":-71.07054,"title":"Culinary Arts Program"},"-LseHINC55M-vVVusHmg":{"clueListId":"B","clueNum":"54","completed":true,"inCrawl":false,"latitude":42.3561126,"longitude":-71.06551400000001,"title":"Boston Common (find the sign)"},"-LseHVHf5t5Od6jVL3Vr":{"clueListId":"B","clueNum":"4","completed":true,"inCrawl":false,"latitude":42.3217765,"longitude":-71.1104062,"title":"The Haven (Pub)"},"-LseHbkzIRcstedwODyY":{"clueListId":"B","clueNum":"52","completed":false,"inCrawl":false,"latitude":42.3317391,"longitude":-71.15554020000002,"title":"Mertopolitan Waterworks Museum"},"-LseHjCseijXCHm9R0Hr":{"clueListId":"B","clueNum":"31","completed":true,"inCrawl":false,"latitude":42.366198,"longitude":-71.06214599999998,"title":"TD Garden"},"-LseI-F2Em4y9unw_3ce":{"clueListId":"B","clueNum":"41","completed":true,"inCrawl":false,"latitude":42.3469065,"longitude":-71.03443870000001,"title":"Harpoon Brewery & Beer Hall"},"-LseI5kBrkKAy8JeXp3P":{"clueListId":"B","clueNum":"5","completed":true,"inCrawl":false,"latitude":42.339696,"longitude":-71.12073199999998,"title":"Grainne O'Malley's (pub)"},"-LseIOGxMKgm9KOUDo_z":{"clueListId":"B","clueNum":"45","completed":false,"inCrawl":false,"latitude":42.31470499999999,"longitude":-71.14177489999997,"title":"Francis Ouimet House"},"-LseIOKuZ1KYxM6IcrEk":{"clueListId":"B","clueNum":"48","completed":true,"inCrawl":false,"latitude":42.391794,"longitude":-71.11188600000003,"title":"3 Little Figs"},"-LseIbgdeYqpPHDg43C6":{"clueListId":"B","clueNum":"50","completed":false,"inCrawl":false,"latitude":42.37304919999999,"longitude":-71.04998569999998,"title":"Pier 6"},"-LseIkMQ9yz-vH73-TVq":{"clueListId":"B","clueNum":"42","completed":false,"inCrawl":false,"latitude":42.3724718,"longitude":-71.0565001,"title":"USS Constitution"},"-LseJ2fzKsc1d_iHWxZT":{"clueListId":"B","clueNum":"37","completed":false,"inCrawl":false,"latitude":42.3749116,"longitude":-71.06701679999998,"title":"99 Restaurants"},"-LseJ4EPgCUJ-l9XTC7v":{"clueListId":"B","clueNum":"43","completed":false,"inCrawl":false,"latitude":42.259581,"longitude":-70.99491699999999,"title":"Fox and Hound Wood Grille & Campus"},"-LseJLS2xJxY_Fam3PTr":{"clueListId":"B","clueNum":"57","completed":true,"inCrawl":false,"latitude":42.3936436,"longitude":-71.1505985,"title":"Central Rock Gym"},"-LseJUkncpWkLHewd7ds":{"clueListId":"A","clueNum":"83","completed":true,"inCrawl":false,"latitude":42.3673532,"longitude":-71.05031070000001,"title":"battery wharf hotel"},"-LseK014bx_VE2PI9dLn":{"clueListId":"B","clueNum":"56","completed":false,"inCrawl":false,"latitude":42.40372579999999,"longitude":-71.10701929999999,"title":"La Cascia's Bakery"},"-LseKn4BYLUlTNkzTFw_":{"clueListId":"B","clueNum":"9","completed":true,"inCrawl":false,"latitude":42.3485604,"longitude":-71.06587960000002,"title":"Tuft's South Cove MBTA entrance"},"-LseKpkl8KnqTYSDCQmU":{"clueListId":"B","clueNum":"47","completed":true,"inCrawl":false,"latitude":42.363254,"longitude":-71.13361850000001,"title":"The Breakfast Club"},"-LseL-djSvzVz7J00XIj":{"clueListId":"B","clueNum":"58","completed":true,"inCrawl":false,"latitude":42.345863,"longitude":-71.08211719999997,"title":"Cold Stone Creamery"},"-LseLGFyihNpp-YSaXMf":{"clueListId":"B","clueNum":"10","completed":true,"inCrawl":false,"latitude":42.3426377,"longitude":-71.12171519999998,"title":"Brookline Booksmith"},"-LseLXngm5ptAd-2nzx7":{"clueListId":"B","clueNum":"3","completed":false,"inCrawl":false,"latitude":42.3406629,"longitude":-71.0675066,"title":"Gaslight Brasserie"},"-LseMMHvvPXkC-_JJRyx":{"clueListId":"B","clueNum":"8","completed":true,"inCrawl":false,"latitude":42.3546512,"longitude":-71.06026059999999,"title":"Macy's "},"-LseMb2iHShLGDcgqmR2":{"clueListId":"B","clueNum":"14","completed":true,"inCrawl":false,"latitude":42.3620711,"longitude":-71.07009479999999,"title":"Liberty Hotel"},"-LseMjq_nf0irXonu8r7":{"clueListId":"B","clueNum":"15","completed":true,"inCrawl":false,"latitude":42.3190914,"longitude":-71.11162339999998,"title":"Tres Gatos"},"-LseNMS23SePrUBLQyrk":{"clueListId":"B","clueNum":"21","completed":true,"inCrawl":false,"latitude":42.37352,"longitude":-71.0983761,"title":"Christina's Homemade Ice Cream"},"-LseO1xha12vyA2gKaig":{"clueListId":"B","clueNum":"23","completed":false,"inCrawl":false,"latitude":42.3200589,"longitude":-71.11878939999997,"title":"Pinebank"},"-LseOFqehqdSDNrzH5LQ":{"clueListId":"A","clueNum":"94","completed":false,"inCrawl":false,"latitude":42.3829915,"longitude":-71.12801739999998,"title":"Asa Gray House"},"-LseOKV4FPkauIWpKWXz":{"clueListId":"B","clueNum":"26","completed":true,"inCrawl":false,"latitude":42.3718829,"longitude":-71.0852003,"title":"Rock and Roll Daycare"},"-LseOReQZATe2xTPrBXR":{"clueListId":"B","clueNum":"30","completed":true,"inCrawl":false,"latitude":42.349138,"longitude":-71.08150699999999,"title":"Abe and Louie's"},"-LseOa3Wu0_5g0Q750ja":{"clueListId":"B","clueNum":"83","completed":true,"inCrawl":false,"latitude":42.3398066,"longitude":-71.12048149999998,"title":"Salty Garage Doors and Gate Repair Solutions"},"-LseOeKyFhhOeSZKhSDf":{"clueListId":"B","clueNum":"28","completed":true,"inCrawl":false,"latitude":42.3493477,"longitude":-71.08082939999997,"title":"Max Brenner"},"-LsePQ-eGQcaYChLS3cS":{"clueListId":"B","clueNum":"51","completed":false,"inCrawl":false,"latitude":42.38218759999999,"longitude":-71.07937400000003,"title":"Tavern At the End of the World"},"-LsePa24oKxw22csCjeU":{"clueListId":"B","clueNum":"53","completed":true,"inCrawl":false,"latitude":42.36434420000001,"longitude":-71.10151759999997,"title":"Little Donkey"},"-LsePsoFVh_VGg8Wnh9w":{"clueListId":"B","clueNum":"61","completed":false,"inCrawl":false,"latitude":42.3606492,"longitude":-71.18500089999998,"title":"Vow Bridal"},"-LseQ02Cxig_iOTZGIvy":{"clueListId":"B","clueNum":"1","completed":true,"inCrawl":false,"latitude":42.3495377,"longitude":-71.1054077,"title":"Insomnia Cookies"},"-LseQ6ojMz1_oS6_7Hcu":{"clueListId":"B","clueNum":"70","completed":true,"inCrawl":false,"latitude":42.3392899,"longitude":-71.0830891,"title":"Giovanni's Market"},"-LseQAFg-iuJ4zvivYh9":{"clueListId":"A","clueNum":"102","completed":false,"inCrawl":false,"latitude":42.4106466,"longitude":-71.16398090000001,"title":"Menotomy Rocks Park"},"-LseQNpFZTra_GTGczXR":{"clueListId":"B","clueNum":"64","completed":true,"inCrawl":false,"latitude":42.2832823,"longitude":-71.0555812,"title":"Greenhills Irish Bakery"},"-LseQWLJV3yUmaQwxX7J":{"clueListId":"B","clueNum":"66","completed":false,"inCrawl":false,"latitude":42.20655219999999,"longitude":-70.9569669,"title":"Brewster Ambulance Service"},"-LseRafaw8GDtsi2aT7U":{"clueListId":"B","clueNum":"86","completed":true,"inCrawl":false,"latitude":42.3565703,"longitude":-71.05271800000003,"title":"Howl at the Moon"},"-LseRjmQDx7sCrONs-a0":{"clueListId":"B","clueNum":"77","completed":true,"inCrawl":false,"latitude":42.334051,"longitude":-71.03508299999999,"title":"L Street Diner"},"-LseSQy309-r1HV-pjDH":{"clueListId":"A","clueNum":"29","completed":true,"inCrawl":false,"latitude":42.3522691,"longitude":-71.0654002,"title":"Emerson Colonial Theatre"},"-LseSS62BQuGlpyFHAt1":{"clueListId":"B","clueNum":"85","completed":false,"inCrawl":false,"latitude":42.5544884,"longitude":-70.86524409999998,"title":"Neverland Theatre"},"-LseTSuhBOaFcdRkaWeA":{"clueListId":"A","clueNum":"41","completed":true,"inCrawl":false,"latitude":42.36016410000001,"longitude":-71.1024337,"title":"Pacific Street Cafe"},"-LseThlkFBhS7--HUIkY":{"clueListId":"A","clueNum":"46","completed":true,"inCrawl":false,"latitude":42.3576854,"longitude":-71.05374610000001,"title":"Lucky Rice"},"-LseULozIeqzxW6cZPJJ":{"clueListId":"S","clueNum":"7","completed":true,"inCrawl":true,"latitude":42.3476491,"longitude":-71.08520440000001,"title":"The Capital Grille"},"-Lse_l1wkr2bs0ZRhhIT":{"clueListId":"A","clueNum":"34","completed":false,"inCrawl":false,"latitude":42.3218774,"longitude":-71.09065020000003,"title":"Melnea Cass Recreational Park"},"-LseacfDrvZg89waCOvo":{"clueListId":"B","clueNum":"72","completed":true,"inCrawl":false,"latitude":42.3323159,"longitude":-71.1028877,"title":"Kevin W. Fitzgerald Park"},"-Lsev0zCSjVBHVGHNTRC":{"clueListId":"S","clueNum":"9","completed":true,"inCrawl":false,"latitude":42.3619656,"longitude":-71.05752180000002,"title":"Union Square Donuts"},"-Lsf8Ddau5jZtZ-ZR4ZB":{"clueListId":"A","clueNum":"47","completed":true,"inCrawl":false,"latitude":42.35318770000001,"longitude":-71.05978490000001,"title":"Chicken and Rice Guys"},"-Lsf9tLTLybV4aeNjGzV":{"clueListId":"A","clueNum":"52","completed":false,"inCrawl":false,"latitude":42.369492,"longitude":-71.1120952,"title":"Waypoint"},"-LsfEuu_SQEFwNqlwhcM":{"clueListId":"X","clueNum":"6","completed":true,"inCrawl":true,"latitude":42.3735957,"longitude":-71.12129570000002,"title":"Brattle Theatre"},"-LsfFGGSUHa1I_IhL0O2":{"clueListId":"X","clueNum":"7","completed":true,"inCrawl":true,"latitude":42.39675200000001,"longitude":-71.12284569999997,"title":"Somerville Theatre"},"-LsfFkt0v2fulwOyoCOH":{"clueListId":"X","clueNum":"2","completed":true,"inCrawl":true,"latitude":42.35317510000001,"longitude":-71.06417440000001,"title":"AMC Boston Common 19"},"-LsfFwSPMeZUG1NPY5Ba":{"clueListId":"X","clueNum":"3","completed":true,"inCrawl":true,"latitude":42.3425882,"longitude":-71.12246290000002,"title":"Coolidge Corner Theatre"},"-LsfGGe-Bk-InVIaxWP8":{"clueListId":"X","clueNum":"5","completed":true,"inCrawl":true,"latitude":42.3680677,"longitude":-71.08993020000003,"title":"Landmark's Kendall Square Cinema"},"-LsfGJS5sF9YzwLQNoPA":{"clueListId":"X","clueNum":"1","completed":true,"inCrawl":true,"latitude":42.344686,"longitude":-71.101765,"title":"Regal Fenway"},"-LsfLOWNZgKnUQyUx31c":{"clueListId":"S","clueNum":"11","completed":true,"inCrawl":true,"latitude":42.35976559999999,"longitude":-71.09206699999999,"title":"Great Dome MIT (snapchat filter)"},"-LsfNMIYrE7OTnCGr9DQ":{"clueListId":"C","clueNum":"1","completed":true,"inCrawl":false,"latitude":42.3447623,"longitude":-71.09837540000001,"title":"Tasty Burger Fenway"},"-LsfNxGcs-2mLrShumjH":{"clueListId":"C","clueNum":"28","completed":true,"inCrawl":false,"latitude":42.3261493,"longitude":-71.06313030000001,"title":"olive garden dorchester"},"-LsfO6b49Lpc2IuZwhQm":{"clueListId":"C","clueNum":"4","completed":true,"inCrawl":false,"latitude":42.3497025,"longitude":-71.0827486,"title":"Amorino Gelato"},"-LsfOC50mkxeLK5ULaUJ":{"clueListId":"C","clueNum":"34","completed":true,"inCrawl":false,"latitude":42.3630936,"longitude":-71.09242549999999,"title":"A4 Cafe"},"-LsfOVtVeCxSejzGREj9":{"clueListId":"C","clueNum":"38","completed":true,"inCrawl":false,"latitude":42.3602503,"longitude":-71.05474249999997,"title":"Weather Vane on top of Faneuil Hall"},"-LsfOfUHLgUoAcdN3MZE":{"clueListId":"C","clueNum":"26","completed":false,"inCrawl":false,"latitude":42.357945,"longitude":-71.06202989999997,"title":"Boston Athen√¶um"},"-LsfOnu-DIQIwm37RuNy":{"clueListId":"C","clueNum":"3","completed":true,"inCrawl":false,"latitude":42.3366871,"longitude":-71.09576170000003,"title":"Wentworth Library"},"-LsfP-7B-HLapKo-4b9X":{"clueListId":"C","clueNum":"35","completed":false,"inCrawl":false,"latitude":42.3587724,"longitude":-71.0571635,"title":"Boston Massacre Site"},"-LsfP0ByapymaTiFyFor":{"clueListId":"C","clueNum":"7","completed":false,"inCrawl":false,"latitude":42.3539314,"longitude":-71.07396540000002,"title":"First Lutheran Church"},"-LsfPNY4VUWaZkrFqJH5":{"clueListId":"C","clueNum":"41","completed":false,"inCrawl":false,"latitude":42.316119,"longitude":-71.08459529999999,"title":"Boston Latin Academy"},"-LsfP_lXKRR1r-uiCFJO":{"clueListId":"C","clueNum":"47","completed":true,"inCrawl":false,"latitude":42.3538514,"longitude":-71.13718510000001,"title":"Roxy's Grilled Cheese"},"-LsfPhaLyODsOWh2fbIG":{"clueListId":"C","clueNum":"40","completed":true,"inCrawl":false,"latitude":42.338883,"longitude":-71.0759544,"title":"Orinoco: A Latin Kitchen"},"-LsfPxG69ND5-UqtzbWY":{"clueListId":"C","clueNum":"50","completed":true,"inCrawl":false,"latitude":42.3497884,"longitude":-71.03870549999999,"title":"No Name Restaurant"},"-LsfQ9R0C40pwWndUq8y":{"clueListId":"C","clueNum":"43","completed":false,"inCrawl":false,"latitude":42.35377159999999,"longitude":-71.0486644,"title":"The Barking Crab"},"-LsfQEUkntcKO9HIUB4-":{"clueListId":"C","clueNum":"9","completed":false,"inCrawl":false,"latitude":42.348272,"longitude":-71.07372220000002,"title":"Flour"},"-LsfQKwpo9X_exiEMHbK":{"clueListId":"C","clueNum":"51","completed":true,"inCrawl":false,"latitude":42.3513667,"longitude":-71.04049090000001,"title":"Spirit of Boston"},"-LsfQMgpjLKw_NNwFgqQ":{"clueListId":"A","clueNum":"54","completed":true,"inCrawl":false,"latitude":42.3375795,"longitude":-71.04936650000002,"title":"Neatly Nested"},"-LsfQXhw6EyiIhl61UvD":{"clueListId":"C","clueNum":"20","completed":true,"inCrawl":false,"latitude":42.35813530000001,"longitude":-71.09503130000002,"title":"Kresge Auditorium"},"-LsfQfuZFzvOEQed-gCp":{"clueListId":"C","clueNum":"24","completed":true,"inCrawl":false,"latitude":42.3648033,"longitude":-71.10212179999996,"title":"Boomerangs"},"-LsfQs0U8UFrJrRlj1GV":{"clueListId":"A","clueNum":"57","completed":true,"inCrawl":false,"latitude":42.36105080000001,"longitude":-71.0639425,"title":"Tip Tap Room"},"-LsfQxIr-wLlo2Xi8LzW":{"clueListId":"C","clueNum":"13","completed":false,"inCrawl":false,"latitude":42.3476024,"longitude":-71.08063570000002,"title":"Luis Vuitton"},"-LsfR1xsEwJCvy8YmV_r":{"clueListId":"C","clueNum":"19","completed":true,"inCrawl":false,"latitude":42.350645,"longitude":-71.06464519999997,"title":"The Wilbur Theater"},"-LsfR4D1g-Z6PojUtN_a":{"clueListId":"C","clueNum":"8","completed":false,"inCrawl":false,"latitude":42.342838,"longitude":-71.07860800000003,"title":"Petit Robert Bistro"},"-LsfRAqTP8FobAMX_dNJ":{"clueListId":"C","clueNum":"60","completed":true,"inCrawl":false,"latitude":42.3444763,"longitude":-71.02898779999998,"title":"Reebok"},"-LsfRHQe7RiNuiMFqov4":{"clueListId":"C","clueNum":"66","completed":false,"inCrawl":false,"latitude":42.34171449999999,"longitude":-71.15463449999999,"title":"Gyro City"},"-LsfRbVJ8AG9q9g8mSig":{"clueListId":"C","clueNum":"33","completed":false,"inCrawl":false,"latitude":42.3364574,"longitude":-71.05664819999998,"title":"Castle Self Storage"},"-LsfS2KFx734PIvyeB7d":{"clueListId":"C","clueNum":"49","completed":true,"inCrawl":false,"latitude":42.37359120000001,"longitude":-71.1195328,"title":"Milk Bar Mini"},"-LsfS7rRXoeblJJnn890":{"clueListId":"C","clueNum":"44","completed":true,"inCrawl":false,"latitude":42.34818380000001,"longitude":-71.0892164,"title":"Harvard Club of Boston"},"-LsfSKaULRKME6DQxCne":{"clueListId":"C","clueNum":"73","completed":false,"inCrawl":false,"latitude":42.35847390000001,"longitude":-71.0575303,"title":"Boston Harbor Now"},"-LsfT5xldC5E7Q1XHerW":{"clueListId":"C","clueNum":"15","completed":true,"inCrawl":false,"latitude":42.3442155,"longitude":-71.0869098,"title":"Mass Ave opp Christian Science Center Bus Stop"},"-LsfTAVrqzk0n3OHelCt":{"clueListId":"C","clueNum":"70","completed":false,"inCrawl":false,"latitude":42.3213351,"longitude":-71.17598939999999,"title":"Chestnut Hill"},"-LsfTAw9FgQyxZiKYQoo":{"clueListId":"C","clueNum":"74","completed":true,"inCrawl":false,"latitude":42.3912716,"longitude":-71.1384544,"title":"Apple Cinemas Cambridge"},"-LsfU28MB6fAkOaNcDeK":{"clueListId":"C","clueNum":"59","completed":false,"inCrawl":false,"latitude":42.2920598,"longitude":-71.08468970000001,"title":"Harambee"},"-LsfUOTFdhU7ow8lCfN9":{"clueListId":"C","clueNum":"56","completed":true,"inCrawl":false,"latitude":42.3632371,"longitude":-71.05597499999999,"title":"Neptune Oyster"},"-LsfUZlJyNuP1IxYdPyM":{"clueListId":"C","clueNum":"61","completed":true,"inCrawl":false,"latitude":42.3885779,"longitude":-71.103027,"title":"Pooh & Friends Childcare"},"-LsfUfNVQIl0--W9j-yC":{"clueListId":"C","clueNum":"57","completed":false,"inCrawl":false,"latitude":42.2995428,"longitude":-71.05864459999998,"title":"Sweet Sips"},"-LsfUsCVRhuuAaYjWTPM":{"clueListId":"C","clueNum":"5","completed":true,"inCrawl":false,"latitude":42.34134600000001,"longitude":-71.082449,"title":"Cut N Edge"},"-LsfV2B5X9ad9hPZymnC":{"clueListId":"C","clueNum":"69","completed":false,"inCrawl":false,"latitude":42.39669790000001,"longitude":-71.1230347,"title":"Bad Art Museum"},"-LsfVO1nGBoAl1X1i-r1":{"clueListId":"C","clueNum":"68","completed":false,"inCrawl":false,"latitude":42.403505,"longitude":-71.12837300000001,"title":"Soul. Train. Fitness"},"-LsfVZ00rBa8zJmhVHH9":{"clueListId":"C","clueNum":"64","completed":false,"inCrawl":false,"latitude":42.3162356,"longitude":-71.04546449999998,"title":"BC High"},"-LsfVkoVj5qCOTthEtQf":{"clueListId":"A","clueNum":"35","completed":false,"inCrawl":false,"latitude":42.403505,"longitude":-71.12837300000001,"title":"Soul. Train. Fitness"},"-LsfVyMq_Dw7lYTFGc7q":{"clueListId":"C","clueNum":"31","completed":true,"inCrawl":false,"latitude":42.3658957,"longitude":-71.092897,"title":"The Garment District"},"-LsfVylRmLcd41wKi9VB":{"clueListId":"C","clueNum":"39","completed":true,"inCrawl":false,"latitude":42.363739,"longitude":-71.05369999999999,"title":"Paul Revere House"},"-LsfW6oKUxVcY85iMf3T":{"clueListId":"C","clueNum":"10","completed":false,"inCrawl":false,"latitude":42.333312,"longitude":-71.08207270000003,"title":"Tropical Foods"},"-LsfWJHJnQUVS0zrGbRd":{"clueListId":"C","clueNum":"63","completed":false,"inCrawl":false,"latitude":42.3742476,"longitude":-71.0630784,"title":"Warren Tavern"},"-LsfWNYwO7zWk7IKcQl0":{"clueListId":"C","clueNum":"42","completed":false,"inCrawl":false,"latitude":42.3424361,"longitude":-71.0538482,"title":"Coppersmith"},"-LsfX-_MNU4BCH9lhg-r":{"clueListId":"C","clueNum":"58","completed":true,"inCrawl":false,"latitude":42.33807760000001,"longitude":-71.03086139999999,"title":"Medal of Honor Park"},"-LsfXDUXRB-ahOD2fyTT":{"clueListId":"X","clueNum":"4","completed":true,"inCrawl":true,"latitude":42.3253913,"longitude":-71.0621577,"title":"AMC South Bay Center 12"},"-LsfXJR-Sfx3aX5d74PG":{"clueListId":"C","clueNum":"46","completed":true,"inCrawl":false,"latitude":42.36265,"longitude":-71.05460599999998,"title":"North Bennet Street School"},"-LsfXZN7WYGjbAcEjOaC":{"clueListId":"C","clueNum":"55","completed":false,"inCrawl":false,"latitude":42.3145564,"longitude":-71.10289519999998,"title":"Sam Adams Brewery"},"-LsfYJE3-7ljafkeLNmR":{"clueListId":"C","clueNum":"23","completed":false,"inCrawl":false,"latitude":42.3536973,"longitude":-71.10900509999999,"title":"dewolfe boathouse"},"-LsfYRUlKLz98Nsp-rsM":{"clueListId":"C","clueNum":"21","completed":false,"inCrawl":false,"latitude":42.3575319,"longitude":-71.0584096,"title":"Old Corner Bookstore"},"-LsfYXQ4V1xL4sV4g_sQ":{"clueListId":"C","clueNum":"30","completed":true,"inCrawl":false,"latitude":42.3660936,"longitude":-71.10559990000002,"title":"Pandemonium Books and Games"},"-LsfZENAsrumQ0Knhp7H":{"clueListId":"C","clueNum":"29","completed":false,"inCrawl":false,"latitude":42.3221673,"longitude":-71.0621266,"title":"Dorchester Brewing Company"},"-LsfZIBW5IKHD2vZU-Q0":{"clueListId":"C","clueNum":"17","completed":true,"inCrawl":false,"latitude":42.3502792,"longitude":-71.06496179999999,"title":"Wang Theatre - Boch Center"},"-LsfZtyzeueackrWM9UX":{"clueListId":"C","clueNum":"72","completed":false,"inCrawl":false,"latitude":42.3913417,"longitude":-71.044148,"title":"Mystic Brewery"},"-Lsf_2cqSZVcr_dOV7g1":{"clueListId":"D","clueNum":"69","completed":true,"inCrawl":false,"latitude":42.3369449,"longitude":-71.02404150000001,"title":"Murphy Memorial Skating Rink"},"-Lsf_OEltSsOl_VSenCJ":{"clueListId":"D","clueNum":"73","completed":false,"inCrawl":false,"latitude":42.3351281,"longitude":-71.1664682,"title":"Boston College Football Stadium"},"-Lsf_SOzFQaqtoBCRouW":{"clueListId":"D","clueNum":"1","completed":true,"inCrawl":false,"latitude":42.3484566,"longitude":-71.08408609999998,"title":"Trader Joe's"},"-Lsf_jAOs4NV8A-Fv62l":{"clueListId":"D","clueNum":"2","completed":true,"inCrawl":false,"latitude":42.3338046,"longitude":-71.09144559999999,"title":"Boston Police Headquarters"},"-Lsf_levQ641YrNQMr_g":{"clueListId":"D","clueNum":"8","completed":true,"inCrawl":false,"latitude":42.33366559999999,"longitude":-71.10554719999999,"title":"Flames Restaurant II"},"-Lsf_vJoUtiuxYELVkXm":{"clueListId":"D","clueNum":"58","completed":true,"inCrawl":false,"latitude":42.3663259,"longitude":-71.05439439999998,"title":"Old North Church"},"-Lsf_vtD66m2qaMV135t":{"clueListId":"D","clueNum":"5","completed":true,"inCrawl":false,"latitude":42.3489882,"longitude":-71.08241479999998,"title":"Apple Store"},"-LsfaIxZZ_C2L5K9pzOQ":{"clueListId":"D","clueNum":"4","completed":true,"inCrawl":false,"latitude":42.338883,"longitude":-71.0759544,"title":"Orinoco"},"-LsfaN0ad89648TD9-jt":{"clueListId":"D","clueNum":"62","completed":true,"inCrawl":false,"latitude":42.3682565,"longitude":-71.0554464,"title":"Great Molasses Flood Plaque"},"-LsfaOaYIOFI31mfBEbo":{"clueListId":"D","clueNum":"57","completed":true,"inCrawl":false,"latitude":42.3663259,"longitude":-71.05439439999998,"title":"Old North Church"},"-LsfaTZpr_hS2LC5vrqq":{"clueListId":"C","clueNum":"81","completed":false,"inCrawl":false,"latitude":42.4138567,"longitude":-70.99246920000002,"title":"Wonderland T stop"},"-Lsfa_6MFgeNijSsnii6":{"clueListId":"D","clueNum":"65","completed":false,"inCrawl":false,"latitude":42.34011019999999,"longitude":-71.1547061,"title":"Alexander Hamilton School"},"-Lsfapz4wQiQxoZ8q0yL":{"clueListId":"D","clueNum":"63","completed":false,"inCrawl":false,"latitude":42.3668649,"longitude":-71.0562112,"title":"Skinny house"},"-Lsfazz42QAk8s9Cuy49":{"clueListId":"A","clueNum":"100","completed":false,"inCrawl":false,"latitude":42.349794,"longitude":-71.101405,"title":"Dellaria Salon"},"-LsfbPIqPKbxhJrweCe3":{"clueListId":"D","clueNum":"85","completed":false,"inCrawl":false,"latitude":42.3898195,"longitude":-70.99782749999997,"title":"Suffolk Downs"},"-LsfbaERyevfQmb7dC4M":{"clueListId":"D","clueNum":"72","completed":true,"inCrawl":false,"latitude":42.3634192,"longitude":-71.1289764,"title":"The Grove (its like a park)"},"-LsfbcHLgCMZ-VSiIgPa":{"clueListId":"D","clueNum":"76","completed":false,"inCrawl":false,"latitude":42.4138567,"longitude":-70.99246920000002,"title":"Wonderland T Stop"},"-Lsfc4Vyf2bo-_fnyJQX":{"clueListId":"D","clueNum":"82","completed":false,"inCrawl":false,"latitude":42.29127949999999,"longitude":-71.17408890000002,"title":"Brook Farm"},"-LsfcTsDPDK4lk1Yw1Ok":{"clueListId":"D","clueNum":"74","completed":false,"inCrawl":false,"latitude":42.38125420000001,"longitude":-71.06301229999997,"title":"Jennys Pizza"},"-LsfckzZ_5KTXYNIx2eE":{"clueListId":"D","clueNum":"80","completed":true,"inCrawl":false,"latitude":42.35932069999999,"longitude":-71.05486869999999,"title":"Al's"},"-LsfcqJRQzSWKQTJesl_":{"clueListId":"D","clueNum":"79","completed":false,"inCrawl":false,"latitude":42.3756026,"longitude":-71.1695176,"title":"Oakley Country Club"},"-LsfdFs9KLsgocLrEUcW":{"clueListId":"D","clueNum":"84","completed":false,"inCrawl":false,"latitude":42.346772,"longitude":-70.95525800000001,"title":"Deer Island (find a sign or something)"},"-LsfdJ58wRJ4GhKz3DLz":{"clueListId":"C","clueNum":"62","completed":false,"inCrawl":false,"latitude":42.33497569999999,"longitude":-71.15007079999998,"title":"Sushi Momento"},"-LsfdxE9FB6jsYc1Wkfy":{"clueListId":"D","clueNum":"13","completed":true,"inCrawl":false,"latitude":42.361176,"longitude":-71.09017970000002,"title":"Aesop's Fables, II"},"-LsfeL_HT8XWSTh2Iy-j":{"clueListId":"D","clueNum":"45","completed":false,"inCrawl":false,"latitude":42.3493095,"longitude":-71.04959509999998,"title":"Blue Dragon"},"-LsfeM3nWCtGGyseVKcr":{"clueListId":"C","clueNum":"37","completed":false,"inCrawl":false,"latitude":42.3652128,"longitude":-71.081997,"title":"Fuji at Kendall"},"-LsfeUdSWHRGauv6CfGe":{"clueListId":"C","clueNum":"27","completed":true,"inCrawl":false,"latitude":42.3615336,"longitude":-71.06501249999997,"title":"BPL west"},"-LsfegAJiRY8bCZ9Ajht":{"clueListId":"D","clueNum":"60","completed":true,"inCrawl":false,"latitude":42.3810755,"longitude":-71.11748639999996,"title":"Lesley University"},"-LsfeybQ7ZTWz2nHPsND":{"clueListId":"D","clueNum":"47","completed":true,"inCrawl":false,"latitude":42.36293019999999,"longitude":-71.05548870000001,"title":"Improv Asylum"},"-Lsff16G59m3lV6LiRyV":{"clueListId":"D","clueNum":"55","completed":false,"inCrawl":false,"latitude":42.31597300000001,"longitude":-71.06598529999997,"title":"Strand Theatre"},"-LsfgHzUfZ9IP2_xw3px":{"clueListId":"D","clueNum":"7","completed":false,"inCrawl":false,"latitude":42.349229,"longitude":-71.07952799999998,"title":"Lenox Hotel"},"-LsfgaHH6KsH6o99wncw":{"clueListId":"C","clueNum":"54","completed":true,"inCrawl":false,"latitude":42.3486426,"longitude":-71.03771089999998,"title":"Legal Harborside"},"-LsfglNPoA8HC1-RdId2":{"clueListId":"D","clueNum":"9","completed":false,"inCrawl":false,"latitude":42.3434753,"longitude":-71.07795799999997,"title":"Harriet Tubman Square/Park"},"-Lsfgp5kU6wyh39WjYY6":{"clueListId":"D","clueNum":"33","completed":false,"inCrawl":false,"latitude":42.50310500000001,"longitude":-71.099714,"title":"Bear Hill Rehabilitation Center"},"-Lsfgs9-DFs0NhrSrZ8I":{"clueListId":"D","clueNum":"21","completed":true,"inCrawl":false,"latitude":42.3625095,"longitude":-71.05557019999998,"title":"Tony DeMarco"},"-Lsfh0h3w9HBYhlgJnpR":{"clueListId":"D","clueNum":"10","completed":false,"inCrawl":false,"latitude":42.344488,"longitude":-71.07104179999999,"title":"Boston Center for the Arts"},"-LsfhBleuCGpKs1JFMUh":{"clueListId":"D","clueNum":"52","completed":true,"inCrawl":false,"latitude":42.3743896,"longitude":-71.1162491,"title":"Harvard Yard"},"-LsfhLTujGYK2nuvPfYT":{"clueListId":"D","clueNum":"53","completed":true,"inCrawl":false,"latitude":42.3708098,"longitude":-71.12045749999999,"title":"Kirkland House"},"-LsfhM2p1Ag97mOZk-kF":{"clueListId":"C","clueNum":"78","completed":false,"inCrawl":false,"latitude":42.39498049999999,"longitude":-71.06696310000001,"title":"Encore"},"-LsfhS3CIrgnQT7qY-oD":{"clueListId":"D","clueNum":"51","completed":false,"inCrawl":false,"latitude":42.3538179,"longitude":-71.04863929999999,"title":"Barking Crab"},"-LsfhZlnaRcUOzLZ9PEr":{"clueListId":"D","clueNum":"12","completed":true,"inCrawl":false,"latitude":42.3522385,"longitude":-71.06709430000001,"title":"Edgar Allen Poe"},"-Lsfhc3Zll-qjLa3Ksde":{"clueListId":"D","clueNum":"61","completed":false,"inCrawl":false,"latitude":42.3444226,"longitude":-71.04494420000003,"title":"Lawn on D"},"-LsfiB0HeG7BzU2d-MKa":{"clueListId":"D","clueNum":"17","completed":true,"inCrawl":false,"latitude":42.361437,"longitude":-71.05678999999998,"title":"Green Dragon Tavern"},"-LsfiO2Bq-oYZ2ZfQDMX":{"clueListId":"D","clueNum":"36","completed":true,"inCrawl":false,"latitude":42.34619,"longitude":-71.12772100000001,"title":"Daily Catch"},"-LsfiVV0MUwTP93PMfFS":{"clueListId":"D","clueNum":"19","completed":false,"inCrawl":false,"latitude":42.3913417,"longitude":-71.16016619999999,"title":"Indigo Fire"},"-Lsfj2ihR5KAMYv29ADR":{"clueListId":"D","clueNum":"20","completed":true,"inCrawl":false,"latitude":42.3439206,"longitude":-71.1236791,"title":"Zaftigs Delicatessan"},"-LsfkiDA4qV9kCxXgEkY":{"clueListId":"D","clueNum":"40","completed":false,"inCrawl":false,"latitude":42.318972,"longitude":-71.05658060000002,"title":"The Banshee"},"-LsfqfdMKckOoqitozr2":{"clueListId":"D","clueNum":"25","completed":false,"inCrawl":false,"latitude":42.3565143,"longitude":-71.0558474,"title":"Post Office Square"},"-Lsfr3jwBRud5cm6fSjE":{"clueListId":"D","clueNum":"26","completed":false,"inCrawl":false,"latitude":42.3769262,"longitude":-71.12638140000001,"title":"Longfellow House"},"-LsfsyiMEWxFyUXb5d3O":{"clueListId":"Y","clueNum":"5","completed":false,"inCrawl":true,"latitude":42.3373744,"longitude":-71.2525991,"title":"Riverside"},"-Lsft4TY0NwMy0a5GTSG":{"clueListId":"Y","clueNum":"3","completed":true,"inCrawl":true,"latitude":42.315757,"longitude":-71.117527,"title":"Jamaica Pond - find a sign"},"-LsftkwXKC3X9Eqqxmps":{"clueListId":"Y","clueNum":"2","completed":true,"inCrawl":true,"latitude":42.3073674,"longitude":-71.12077590000001,"title":"Arnold Arboritum"},"-LsftqdFGcQkXTblnCYU":{"clueListId":"Y","clueNum":"4","completed":false,"inCrawl":true,"latitude":42.3054661,"longitude":-71.09002939999999,"title":"Franklin Park Zoo"},"-LsfuM5xxfCnzbLcpwJ9":{"clueListId":"Y","clueNum":"6","completed":false,"inCrawl":true,"latitude":42.3540434,"longitude":-71.0701439,"title":"Swan Boats (Public Garden)"},"-Lsfv009yCQKsvWSi1y4":{"clueListId":"Y","clueNum":"1","completed":false,"inCrawl":true,"latitude":42.3419564,"longitude":-71.09492180000001,"title":"Kelleher Rose Garden"},"-LsfwAD7AiZu9_RDHu6W":{"clueListId":"Z","clueNum":"4","completed":true,"inCrawl":true,"latitude":42.33865580000001,"longitude":-71.0989386,"title":"Isabella Stewart Gardner Museum"},"-LsfwcOwI7SOzQGnt4Hc":{"clueListId":"Z","clueNum":"6","completed":true,"inCrawl":true,"latitude":42.3740898,"longitude":-71.11435820000003,"title":"Fogg Art Museum"},"-LsfweOym4c2ukDlgCnr":{"clueListId":"Z","clueNum":"5","completed":true,"inCrawl":true,"latitude":42.3528824,"longitude":-71.04301099999998,"title":"Institute of Contemporary Art"},"-LsfxnojQCTYux6-Ryi2":{"clueListId":"Z","clueNum":"1","completed":true,"inCrawl":true,"latitude":42.33763099999999,"longitude":-71.10510999999997,"title":"Boston Children's Hospital"},"-LsfxpF-gDWBjOEy62Aw":{"clueListId":"Z","clueNum":"2","completed":true,"inCrawl":true,"latitude":42.3677984,"longitude":-71.07148230000001,"title":"Museum of Science"},"-Lsg0ISbGMMCbspkMrAZ":{"clueListId":"E","clueNum":"23","completed":false,"inCrawl":false,"latitude":42.34075470000001,"longitude":-71.0695126,"title":"Cathedral of the Holy Cross"},"-Lsg0TdnMqApsjZYbi4a":{"clueListId":"E","clueNum":"24","completed":true,"inCrawl":false,"latitude":42.3522691,"longitude":-71.0654002,"title":"Emerson Colonial Theatre"},"-Lsg0cK06dl_I2958h2K":{"clueListId":"E","clueNum":"48","completed":false,"inCrawl":false,"latitude":42.31919000000001,"longitude":-71.07755900000001,"title":"Merengue Restaurant"},"-Lsg1KluxYt3D-BEZgfS":{"clueListId":"E","clueNum":"68","completed":false,"inCrawl":false,"latitude":42.3968886,"longitude":-71.07150480000001,"title":"Costco"},"-Lsg2Dgz2w3kQmSOa5MP":{"clueListId":"E","clueNum":"74","completed":false,"inCrawl":false,"latitude":42.2964421,"longitude":-71.26570770000001,"title":"Babson College"},"-Lsg2paAnI-TNa0b-ImV":{"clueListId":"E","clueNum":"3","completed":true,"inCrawl":false,"latitude":42.33736409999999,"longitude":-71.08361909999996,"title":"Hollywood Liquors"},"-Lsg2s6bb6bxhJ0pBAMe":{"clueListId":"E","clueNum":"2","completed":true,"inCrawl":false,"latitude":42.33682499999999,"longitude":-71.0845736,"title":"good eats"},"-Lsg3UYVnH1RL7dIzhjV":{"clueListId":"E","clueNum":"61","completed":true,"inCrawl":false,"latitude":42.3860925,"longitude":-71.11955160000002,"title":"Bagelsaurus"},"-Lsg3tJsEG_Re4ZJ7Xny":{"clueListId":"E","clueNum":"10","completed":true,"inCrawl":false,"latitude":42.3340932,"longitude":-71.1054297,"title":"Penguin Pizza"},"-Lsg5c_i_BCI1YHT0qKs":{"clueListId":"E","clueNum":"12","completed":true,"inCrawl":false,"latitude":42.3770029,"longitude":-71.11666009999999,"title":"Harvard University"},"-Lsg5vicRKraBGU4W8cT":{"clueListId":"E","clueNum":"60","completed":true,"inCrawl":false,"latitude":42.363418,"longitude":-71.13038899999998,"title":"Continuum"},"-Lsg6QTScJ5DQWwn6xXa":{"clueListId":"E","clueNum":"62","completed":false,"inCrawl":false,"latitude":42.3476491,"longitude":-71.08520440000001,"title":"Capital Grille"},"-Lsg71MviF5uZCwOixzF":{"clueListId":"E","clueNum":"50","completed":true,"inCrawl":false,"latitude":42.3334312,"longitude":-71.04393920000001,"title":"Dorchester Heights"},"-Lsg7ZTgUnj2ppki_WCQ":{"clueListId":"Z","clueNum":"3","completed":true,"inCrawl":true,"latitude":42.339381,"longitude":-71.09404799999999,"title":"MFA"},"-Lsg7xKB_-eBRc6i-npg":{"clueListId":"E","clueNum":"70","completed":false,"inCrawl":false,"latitude":42.3867598,"longitude":-72.53005150000001,"title":"Umass Amherst"},"-Lsg8CZeRbp1KlOxSuH2":{"clueListId":"E","clueNum":"73","completed":true,"inCrawl":false,"latitude":42.3523073,"longitude":-71.14044289999998,"title":"Rock City Pizza"},"-Lsg8mJM3oUl1IznmlhU":{"clueListId":"E","clueNum":"56","completed":false,"inCrawl":false,"latitude":42.38357690000001,"longitude":-71.03629519999998,"title":"Sparrow Enterprises"},"-Lsg9-bcsdFyhN_U5XJs":{"clueListId":"E","clueNum":"64","completed":true,"inCrawl":false,"latitude":42.38980550000001,"longitude":-71.14759859999998,"title":"Raytheon/BBN HQ"},"-Lsg9OxYa1KMaR6rza_U":{"clueListId":"E","clueNum":"57","completed":true,"inCrawl":false,"latitude":42.3653467,"longitude":-71.05273929999998,"title":"St. Stephen's Church"},"-Lsg9gxEmdzwwCubFRUI":{"clueListId":"E","clueNum":"58","completed":false,"inCrawl":false,"latitude":42.4496222,"longitude":-71.23076200000003,"title":"Lexington Common National Historic Site"},"-LsgAgmIczkEw9HvL1hd":{"clueListId":"E","clueNum":"52","completed":false,"inCrawl":false,"latitude":42.3372895,"longitude":-71.04204319999997,"title":"Radiant Yoga Boston"},"-LsgBHFMz_fFLvAgW-Oc":{"clueListId":"E","clueNum":"51","completed":true,"inCrawl":false,"latitude":42.3488167,"longitude":-71.03816940000002,"title":"Del Friscos Double Eagle Steakhouse"},"-LsgBheoZbABE71EppIX":{"clueListId":"E","clueNum":"49","completed":true,"inCrawl":false,"latitude":42.37796790000001,"longitude":-71.1185979,"title":"Harvard Law School Library"},"-LsgBya2iN-J_s94U-2d":{"clueListId":"S","clueNum":"15","completed":true,"inCrawl":true,"latitude":42.3576105,"longitude":-71.06886359999999,"title":"Acorn St (Snapchat Filter)"},"-LsgC0UtP-Qo_v6aAoGd":{"clueListId":"E","clueNum":"32","completed":false,"inCrawl":false,"latitude":42.3526702,"longitude":-71.11060839999999,"title":"BU Bridge"},"-LsgC7Bj4xk5eJxXd76t":{"clueListId":"E","clueNum":"47","completed":false,"inCrawl":false,"latitude":42.3284886,"longitude":-71.12937640000001,"title":"Lincoln School"},"-LsgCK5N0YS-duOrq70R":{"clueListId":"E","clueNum":"45","completed":true,"inCrawl":false,"latitude":42.35162309999999,"longitude":-71.05024259999999,"title":"Hood Milk Bottle"},"-LsgCLups8RNMUZwDe35":{"clueListId":"E","clueNum":"30","completed":false,"inCrawl":false,"latitude":42.35399270000001,"longitude":-71.0623119,"title":"Citizen's Bank Opera House"},"-LsgCgpJmfmvPa0xN-O4":{"clueListId":"E","clueNum":"28","completed":true,"inCrawl":false,"latitude":42.3636597,"longitude":-71.10111110000003,"title":"Veggie Galaxy"},"-LsgD-gGqVfSMESaxuAU":{"clueListId":"E","clueNum":"37","completed":false,"inCrawl":false,"latitude":42.3242195,"longitude":-71.078933,"title":"Gertrude Howes Playground"},"-LsgD2eBxWlQJ69oM-vg":{"clueListId":"E","clueNum":"4","completed":false,"inCrawl":false,"latitude":42.3473999,"longitude":-71.09569870000001,"title":"House of Blues"},"-LsgDp55LgCAad6MEC1k":{"clueListId":"E","clueNum":"36","completed":false,"inCrawl":false,"latitude":42.3511819,"longitude":-71.0597459,"title":"Chinatown Gate"},"-LsgDu0fNjjbNCEcuX_J":{"clueListId":"E","clueNum":"71","completed":false,"inCrawl":false,"latitude":42.2763015,"longitude":-71.00924250000003,"title":"The Clam Box"},"-LsgDzmy2JoIXfLH52Yf":{"clueListId":"E","clueNum":"27","completed":true,"inCrawl":false,"latitude":42.3618641,"longitude":-71.0905626,"title":"Stata Building"},"-LsgE-P16f0bkoZGAg3V":{"clueListId":"E","clueNum":"35","completed":true,"inCrawl":false,"latitude":42.3636722,"longitude":-71.1015016,"title":"Middle East"},"-LsgE6VlUjgG72C5-nkp":{"clueListId":"E","clueNum":"41","completed":false,"inCrawl":false,"latitude":42.35727540000001,"longitude":-71.07019220000001,"title":"The Paramount"},"-LsgEUWrwnGmULlmO10y":{"clueListId":"E","clueNum":"72","completed":false,"inCrawl":false,"latitude":42.2971757,"longitude":-71.0082653,"title":"First Church of Squantum"},"-LsgEcHssS8k-kAroLMW":{"clueListId":"E","clueNum":"33","completed":true,"inCrawl":false,"latitude":42.3470417,"longitude":-71.11459830000001,"title":"Amory Playground"},"-LsgEoDXrruDRetscmU2":{"clueListId":"E","clueNum":"31","completed":true,"inCrawl":false,"latitude":42.36500600000001,"longitude":-71.10265980000003,"title":"H Mart"},"-LsgEuZ1VeTxz9Ag-XlK":{"clueListId":"E","clueNum":"69","completed":false,"inCrawl":false,"latitude":42.3881852,"longitude":-71.1901992,"title":"Belmont Car Wash"},"-LsgF3hvNCG_becS4fIw":{"clueListId":"E","clueNum":"29","completed":true,"inCrawl":false,"latitude":42.322615,"longitude":-71.10818799999998,"title":"The Frogmore"},"-LsgFPqPmUacxSCfldzG":{"clueListId":"E","clueNum":"26","completed":false,"inCrawl":false,"latitude":42.3526283,"longitude":-71.06437040000003,"title":"Explorateur"},"-LsgFWjI7cPl4RAyMLHJ":{"clueListId":"E","clueNum":"44","completed":true,"inCrawl":false,"latitude":42.3515392,"longitude":-71.0729131,"title":"Life Alive"},"-LsgFrZEINXuDlEaaGt5":{"clueListId":"E","clueNum":"66","completed":false,"inCrawl":false,"latitude":42.3685672,"longitude":-71.18015530000002,"title":"Edmund Fowle House"},"-LsgGWxziOvGd9BrjzOP":{"clueListId":"E","clueNum":"39","completed":false,"inCrawl":false,"latitude":42.3521094,"longitude":-71.11941569999999,"title":"Paradise Rock Club"},"-LsgH5l_aFk-v4ZEjt35":{"clueListId":"E","clueNum":"65","completed":true,"inCrawl":false,"latitude":42.3759629,"longitude":-71.11533159999999,"title":"Annenberg Hall"},"-LsgHov5hELCmvRF0Thu":{"clueListId":"E","clueNum":"19","completed":true,"inCrawl":false,"latitude":42.3474997,"longitude":-71.10600039999997,"title":"Mei Mei"},"-LsgHwlfctbd8yli8Yrp":{"clueListId":"E","clueNum":"20","completed":true,"inCrawl":false,"latitude":42.3311959,"longitude":-71.080128,"title":"Morgan Memorial Good Will"},"-LsgILudwtd5_Z9u-i-7":{"clueListId":"E","clueNum":"15","completed":true,"inCrawl":false,"latitude":42.3468132,"longitude":-71.10569629999998,"title":"Cafe Landwear"},"-LsgIOtdVgDvqXXEy3o_":{"clueListId":"E","clueNum":"16","completed":false,"inCrawl":false,"latitude":42.3466871,"longitude":-71.06977380000001,"title":"Wink and Nod"},"-LsgJ9eBhMoQWBl8MgV9":{"clueListId":"E","clueNum":"11","completed":true,"inCrawl":false,"latitude":42.33698769999999,"longitude":-71.07594419999998,"title":"Toro Boston"},"-LsgKOzwn8lAk82uiyW9":{"clueListId":"E","clueNum":"22","completed":false,"inCrawl":false,"latitude":42.35474639999999,"longitude":-71.07407649999999,"title":"Gibson House"},"-LsgKtbzJt3b9QeCxQer":{"clueListId":"E","clueNum":"25","completed":true,"inCrawl":false,"latitude":42.3227793,"longitude":-71.1020097,"title":"Yely's Coffee"},"-LsgLnWjUFpi3Qjgl4lp":{"clueListId":"E","clueNum":"9","completed":false,"inCrawl":false,"latitude":42.34876509999999,"longitude":-71.0766916,"title":"Kahlil Gibran Memorial"},"-LsgLqi9TaanVENuda1H":{"clueListId":"E","clueNum":"17","completed":false,"inCrawl":false,"latitude":42.341279,"longitude":-71.07014099999998,"title":"The Gallows"},"-LsgLslRvY8Oh9c58F72":{"clueListId":"E","clueNum":"42","completed":false,"inCrawl":false,"latitude":42.3482704,"longitude":-71.08638580000002,"title":"Condomworld"},"-LsgMsGyh8tIVsPMeov1":{"clueListId":"E","clueNum":"63","completed":false,"inCrawl":false,"latitude":42.385715,"longitude":-71.213255,"title":"Girl Scouts"},"-LsgUFSkEsfuB8l5rTiJ":{"clueListId":"E","clueNum":"14","completed":false,"inCrawl":false,"latitude":42.3493136,"longitude":-71.07818750000001,"title":"Boston Public Library"},"-LsgYIS9D7S8za20-SZO":{"clueListId":"A","clueNum":"50","completed":true,"inCrawl":false,"latitude":42.3713712,"longitude":-71.09757769999999,"title":"Cambridge Recycling Center"},"-LsgZ30wy7z_S7zCruNz":{"clueListId":"A","clueNum":"53","completed":false,"inCrawl":false,"latitude":42.36100709999999,"longitude":-71.11393620000001,"title":"Whole Foods (river St)"},"-LsgZtzLLqyd601NFUQq":{"clueListId":"A","clueNum":"61","completed":true,"inCrawl":false,"latitude":42.3628491,"longitude":-71.05827290000002,"title":"Haymarket T Stop"},"-Lsg_UAfnY0ubL5Y_s6f":{"clueListId":"A","clueNum":"64","completed":true,"inCrawl":false,"latitude":42.3635966,"longitude":-71.05378780000001,"title":"Pierce-hichborn house"},"-LsgaHTVQgk1Zdnnq9Sz":{"clueListId":"A","clueNum":"88","completed":true,"inCrawl":false,"latitude":42.36557,"longitude":-71.05327110000002,"title":"Paul Revere Statue"},"-LsgcYkWIqpjR-z2IoTt":{"clueListId":"S","clueNum":"17","completed":false,"inCrawl":false,"latitude":42.3471477,"longitude":-71.08250770000001,"title":"Prudential Tower"},"-Lsh7fOOJrosUA0aeb5y":{"clueListId":"F","clueNum":"1","completed":true,"inCrawl":false,"latitude":42.340016,"longitude":-71.0905055,"title":"Tatte"},"-Lsh8MRJH-SBqFA0SwiZ":{"clueListId":"F","clueNum":"3","completed":true,"inCrawl":false,"latitude":42.3401825,"longitude":-71.0900603,"title":"What's Poppin?"},"-Lsh94D9dKdsUgCsBGM_":{"clueListId":"F","clueNum":"20","completed":true,"inCrawl":false,"latitude":42.3386056,"longitude":-71.0922731,"title":"KhouryCollegeofComputerScienceBuilding"},"-Lsh9NHUyvagTCqZpdSr":{"clueListId":"F","clueNum":"8","completed":true,"inCrawl":false,"latitude":42.3382846,"longitude":-71.08886080000002,"title":"The Arch Everyone is Afraid Of"},"-Lsh9pxSE8txqwhzOcQI":{"clueListId":"F","clueNum":"21","completed":true,"inCrawl":false,"latitude":42.34127429999999,"longitude":-71.0845261,"title":"Matthews Arena"},"-LshAXLjgz58gl01k0cv":{"clueListId":"F","clueNum":"9","completed":true,"inCrawl":false,"latitude":42.3402715,"longitude":-71.09026870000002,"title":"Marino"},"-LshBP1AqKLeAiCpcljA":{"clueListId":"F","clueNum":"10","completed":true,"inCrawl":false,"latitude":42.3373488,"longitude":-71.09215979999999,"title":"Smollastons"},"-LshBZWPWxQN-oynrZ41":{"clueListId":"F","clueNum":"22","completed":true,"inCrawl":false,"latitude":42.3386056,"longitude":-71.0922731,"title":"Quantum Figure Statue (2 part statue guy)"},"-LshBiwzEbyXow9w9eIJ":{"clueListId":"F","clueNum":"11","completed":true,"inCrawl":false,"latitude":42.3376753,"longitude":-71.08887340000001,"title":"Fountain Outside Egan"},"-LshBnL9R4HeFoyUFavO":{"clueListId":"F","clueNum":"12","completed":true,"inCrawl":false,"latitude":42.3376183,"longitude":-71.08776549999999,"title":"ISEC Bridge"},"-LshCeQQ-VmJnm1yu1oQ":{"clueListId":"F","clueNum":"17","completed":true,"inCrawl":false,"latitude":42.339145,"longitude":-71.08756919999996,"title":"Koi Pond"},"-LshCp9hrGdk3j99pdLO":{"clueListId":"F","clueNum":"23","completed":true,"inCrawl":false,"latitude":42.3386056,"longitude":-71.0922731,"title":"The Wheel Statue "},"-LshDO6jiD_0QVM6uCyL":{"clueListId":"F","clueNum":"16","completed":true,"inCrawl":false,"latitude":42.33671419999999,"longitude":-71.09165329999996,"title":"T-rex Mural on Behrakis Staircase"},"-LshDWQpeYUpZqq2sXOs":{"clueListId":"F","clueNum":"24","completed":true,"inCrawl":false,"latitude":42.33877349999999,"longitude":-71.08892349999996,"title":"Cy Young Statue"},"-LshDvh9atnfAuGaftD2":{"clueListId":"F","clueNum":"2","completed":true,"inCrawl":false,"latitude":42.3375534,"longitude":-71.09019080000002,"title":"Shillman Cat"},"-LshE-GR2g_9zL9UL-5R":{"clueListId":"F","clueNum":"25","completed":true,"inCrawl":false,"latitude":42.33890479999999,"longitude":-71.0886261,"title":"Rebeccas"},"-LshF-DhyCH7uxLa_0nW":{"clueListId":"F","clueNum":"19","completed":true,"inCrawl":false,"latitude":42.3389393,"longitude":-71.09163660000002,"title":"Sad boy fetal position mural on cargill, maybe mugar??"},"-LshF-JRpXQfr_SFM5gD":{"clueListId":"F","clueNum":"14","completed":true,"inCrawl":false,"latitude":42.339145,"longitude":-71.08756919999996,"title":"Water Orb Behind Curry"},"-LshFBEqc8qgL_bKgkG1":{"clueListId":"F","clueNum":"13","completed":true,"inCrawl":false,"latitude":42.3389393,"longitude":-71.09163660000002,"title":"Richardson Plaza Clock Tower (on law quad w/ colored streamers)"},"-LshFNZggXiR4Qs4aAFY":{"clueListId":"F","clueNum":"7","completed":true,"inCrawl":false,"latitude":42.339145,"longitude":-71.08756919999996,"title":"Curry Student Center"},"-LshFZKSMJjxfJVbYjAz":{"clueListId":"F","clueNum":"4","completed":true,"inCrawl":false,"latitude":42.3392785,"longitude":-71.09018129999998,"title":"Chicken Lou's"},"-LshFaLnLK1l-tGUIi96":{"clueListId":"F","clueNum":"6","completed":true,"inCrawl":false,"latitude":42.33795550000001,"longitude":-71.08586070000001,"title":"SquashBusters"},"-LshFm8s1OS_YomDxXdO":{"clueListId":"F","clueNum":"18","completed":true,"inCrawl":false,"latitude":42.339362,"longitude":-71.08780009999998,"title":"Husky Inside Ell Hall"},"-LshGAnV41gr3IPSpht6":{"clueListId":"F","clueNum":"15","completed":true,"inCrawl":false,"latitude":42.3378086,"longitude":-71.09093889999997,"title":"MuralofladyonMeserveHall"},"-LshGLwXjzjJtUAZN6eo":{"clueListId":"F","clueNum":"5","completed":true,"inCrawl":false,"latitude":42.3387794,"longitude":-71.0851202,"title":"Carter Playground"},"-Lshrl-_BKwFePNsLQHI":{"clueListId":"B","clueNum":"6","completed":true,"inCrawl":false,"latitude":42.36413700000001,"longitude":-71.10213099999999,"title":"Mad Monkfish"}},"hunters":{"Amy":{"latitude":42.3299331,"longitude":-71.0570938},"Daniel Goldstein":{"latitude":42.310694583125105,"longitude":-71.12227647203521},"Daniel McGann":{"latitude":42.3261672,"longitude":-71.0628024},"Henry Gridley":{"latitude":42.3741814671404,"longitude":-71.23613504051784},"John Philip":{"latitude":42.340168893920165,"longitude":-71.08919357674944},"Jordan Asseo":{"latitude":42.339167687190084,"longitude":-71.09180482998428},"Jordan Wood":{"latitude":42.3401489,"longitude":-71.0891091},"Joshua Spicer":{"latitude":42.33392481114974,"longitude":-71.09085459399174},"Kelly Quinn":{"latitude":42.35815431018388,"longitude":-71.06254019989522},"Matthew Dottinger":{"latitude":42.3401779050424,"longitude":-71.08915913728356},"Nolan Durr":{"latitude":42.35981441219479,"longitude":-71.13861078773043},"Victoria Rojo":{"latitude":42.34016062110198,"longitude":-71.08915919737431}}}
